[
  {
    "facility_id": "nursing_home_1",
    "name": "Sample Nursing Home 1",
    "type": "nursing_home",
    "lat": 47.215,
    "lng": -122.459,
    "tract_fips": "53053000100",
    "capacity": 120,
    "occupancy": 108,
    "staff_count": 60,
    "resident_age_profile": {
      "age_0_4": 0.0,
      "age_5_17": 0.0,
      "age_18_49": 0.1,
      "age_50_64": 0.2,
      "age_65_plus": 0.7
    },
    "contact_multiplier": 1.5,
    "source": "sample_data",
    "last_updated": "2025-09-20"
  },
  {
    "facility_id": "nursing_home_2",
    "name": "Sample Nursing Home 2",
    "type": "nursing_home",
    "lat": 47.225,
    "lng": -122.449,
    "tract_fips": "53053000200",
    "capacity": 140,
    "occupancy": 123,
    "staff_count": 70,
    "resident_age_profile": {
      "age_0_4": 0.0,
      "age_5_17": 0.0,
      "age_18_49": 0.1,
      "age_50_64": 0.2,
      "age_65_plus": 0.7
    },
    "contact_multiplier": 1.5,
    "source": "sample_data",
    "last_updated": "2025-09-20"
  },
  {
    "facility_id": "nursing_home_3",
    "name": "Sample Nursing Home 3",
    "type": "nursing_home",
    "lat": 47.23500000000001,
    "lng": -122.43900000000001,
    "tract_fips": "53053000300",
    "capacity": 160,
    "occupancy": 138,
    "staff_count": 80,
    "resident_age_profile": {
      "age_0_4": 0.0,
      "age_5_17": 0.0,
      "age_18_49": 0.1,
      "age_50_64": 0.2,
      "age_65_plus": 0.7
    },
    "contact_multiplier": 1.5,
    "source": "sample_data",
    "last_updated": "2025-09-20"
  },
  {
    "facility_id": "hospital_1",
    "name": "Sample Hospital 1",
    "type": "hospital",
    "lat": 47.225,
    "lng": -122.449,
    "tract_fips": "53053000100",
    "capacity": 300,
    "occupancy": 250,
    "staff_count": 200,
    "resident_age_profile": {
      "age_0_4": 0.1,
      "age_5_17": 0.1,
      "age_18_49": 0.3,
      "age_50_64": 0.3,
      "age_65_plus": 0.2
    },
    "contact_multiplier": 1.2,
    "source": "sample_data",
    "last_updated": "2025-09-20"
  },
  {
    "facility_id": "hospital_2",
    "name": "Sample Hospital 2",
    "type": "hospital",
    "lat": 47.235,
    "lng": -122.439,
    "tract_fips": "53053000200",
    "capacity": 400,
    "occupancy": 330,
    "staff_count": 250,
    "resident_age_profile": {
      "age_0_4": 0.1,
      "age_5_17": 0.1,
      "age_18_49": 0.3,
      "age_50_64": 0.3,
      "age_65_plus": 0.2
    },
    "contact_multiplier": 1.2,
    "source": "sample_data",
    "last_updated": "2025-09-20"
  },
  {
    "facility_id": "childcare_1",
    "name": "Sample Childcare Center 1",
    "type": "childcare",
    "lat": 47.205,
    "lng": -122.469,
    "tract_fips": "53053000100",
    "capacity": 50,
    "occupancy": 45,
    "staff_count": 15,
    "resident_age_profile": {
      "age_0_4": 0.8,
      "age_5_17": 0.2,
      "age_18_49": 0.0,
      "age_50_64": 0.0,
      "age_65_plus": 0.0
    },
    "contact_multiplier": 1.0,
    "source": "sample_data",
    "last_updated": "2025-09-20"
  },
  {
    "facility_id": "childcare_2",
    "name": "Sample Childcare Center 2",
    "type": "childcare",
    "lat": 47.214999999999996,
    "lng": -122.45899999999999,
    "tract_fips": "53053000200",
    "capacity": 60,
    "occupancy": 53,
    "staff_count": 18,
    "resident_age_profile": {
      "age_0_4": 0.8,
      "age_5_17": 0.2,
      "age_18_49": 0.0,
      "age_50_64": 0.0,
      "age_65_plus": 0.0
    },
    "contact_multiplier": 1.0,
    "source": "sample_data",
    "last_updated": "2025-09-20"
  },
  {
    "facility_id": "childcare_3",
    "name": "Sample Childcare Center 3",
    "type": "childcare",
    "lat": 47.225,
    "lng": -122.449,
    "tract_fips": "53053000300",
    "capacity": 70,
    "occupancy": 61,
    "staff_count": 21,
    "resident_age_profile": {
      "age_0_4": 0.8,
      "age_5_17": 0.2,
      "age_18_49": 0.0,
      "age_50_64": 0.0,
      "age_65_plus": 0.0
    },
    "contact_multiplier": 1.0,
    "source": "sample_data",
    "last_updated": "2025-09-20"
  },
  {
    "facility_id": "childcare_4",
    "name": "Sample Childcare Center 4",
    "type": "childcare",
    "lat": 47.235,
    "lng": -122.439,
    "tract_fips": "53053000400",
    "capacity": 80,
    "occupancy": 69,
    "staff_count": 24,
    "resident_age_profile": {
      "age_0_4": 0.8,
      "age_5_17": 0.2,
      "age_18_49": 0.0,
      "age_50_64": 0.0,
      "age_65_plus": 0.0
    },
    "contact_multiplier": 1.0,
    "source": "sample_data",
    "last_updated": "2025-09-20"
  }
]