{
"type": "FeatureCollection",
"name": "Dialysis_Centers",
"crs": { "type": "name", "properties": { "name": "urn:ogc:def:crs:OGC:1.3:CRS84" } },
"features": [
{ "type": "Feature", "properties": { "X": -118.6863, "Y": 45.644, "FID": 261, "CalcLocati": "45.64395000,-118.68626800", "CalcLoca_1": -118.686268, "CalcLoca_2": 45.64395, "Name": "BLUE MOUNTAIN KIDNEY CENTER", "Address": "72556 COYOTE RD", "City": "PENDLETON", "State": "OR", "Zip": 97801, "formated_p": "Please call patient admission line", "Status": "open", "Icon": "small_green", "Type_": "Dialysis Center", "ObjectId": 161 }, "geometry": { "type": "Point", "coordinates": [ -118.6863, 45.644 ] } },
{ "type": "Feature", "properties": { "X": -119.18, "Y": 46.2711, "FID": 262, "CalcLocati": "46.27105300,-119.18003500", "CalcLoca_1": -119.180035, "CalcLoca_2": 46.271053, "Name": "MID-COLUMBIA KIDNEY CENTER", "Address": "6825 BURDEN BLVD STE A", "City": "PASCO", "State": "WA", "Zip": 99301, "formated_p": "Please call patient admission line", "Status": "open", "Icon": "small_green", "Type_": "Dialysis Center", "ObjectId": 162 }, "geometry": { "type": "Point", "coordinates": [ -119.18, 46.2711 ] } },
{ "type": "Feature", "properties": { "X": -117.9232, "Y": 48.5582, "FID": 263, "CalcLocati": "48.55822600,-117.92316600", "CalcLoca_1": -117.923166, "CalcLoca_2": 48.558226, "Name": "DaVita Echo Valley Dialysis", "Address": "198 PONDEROSA RD", "City": "COLVILLE", "State": "WA", "Zip": 99114, "formated_p": "Please call patient admission line", "Status": "open", "Icon": "small_green", "Type_": "Dialysis Center", "ObjectId": 163 }, "geometry": { "type": "Point", "coordinates": [ -117.9232, 48.5582 ] } },
{ "type": "Feature", "properties": { "X": -119.3122, "Y": 45.8458, "FID": 289, "CalcLocati": "45.84577400,-119.31222000", "CalcLoca_1": -119.31222, "CalcLoca_2": 45.845774, "Name": "HERMISTON COMMUNITY DIALYSIS CENTER", "Address": "1155 WEST LINDA AVE SUITE A", "City": "HERMISTON", "State": "OR", "Zip": 97838, "formated_p": "Please call patient admission line", "Status": "open", "Icon": "small_green", "Type_": "Dialysis Center", "ObjectId": 189 }, "geometry": { "type": "Point", "coordinates": [ -119.3122, 45.8458 ] } },
{ "type": "Feature", "properties": { "X": -120.2846, "Y": 47.41, "FID": 37, "CalcLocati": "47.41002500,-120.28460200", "CalcLoca_1": -120.284602, "CalcLoca_2": 47.410025, "Name": "EAST WENATCHEE DIALYSIS", "Address": "300 N COLORADO AVE", "City": "EAST WENATCHEE", "State": "WA", "Zip": 98802, "formated_p": "Please call patient admission line", "Status": "open", "Icon": "small_green", "Type_": "Dialysis Center", "ObjectId": 937 }, "geometry": { "type": "Point", "coordinates": [ -120.2846, 47.41 ] } },
{ "type": "Feature", "properties": { "X": -116.7842, "Y": 47.7493, "FID": 1181, "CalcLocati": "47.74930600,-116.78424200", "CalcLoca_1": -116.784242, "CalcLoca_2": 47.749306, "Name": "DSI HAYDEN DIALYSIS", "Address": "8556 WAYNE DR", "City": "HAYDEN", "State": "ID", "Zip": 83835, "formated_p": "Please call patient admission line", "Status": "open", "Icon": "small_green", "Type_": "Dialysis Center", "ObjectId": 1582 }, "geometry": { "type": "Point", "coordinates": [ -116.7842, 47.7493 ] } },
{ "type": "Feature", "properties": { "X": -122.7083, "Y": 45.5378, "FID": 1182, "CalcLocati": "45.53781700,-122.70829700", "CalcLoca_1": -122.708297, "CalcLoca_2": 45.537817, "Name": "PNRS HOME DIALYSIS", "Address": "2701 NW Vaughn St., Ste. 150", "City": "PORTLAND", "State": "OR", "Zip": 97201, "formated_p": "Please call patient admission line", "Status": "open", "Icon": "small_green", "Type_": "Dialysis Center", "ObjectId": 1583 }, "geometry": { "type": "Point", "coordinates": [ -122.7083, 45.5378 ] } },
{ "type": "Feature", "properties": { "X": -122.8363, "Y": 45.4999, "FID": 1183, "CalcLocati": "45.49987500,-122.83631600", "CalcLoca_1": -122.836316, "CalcLoca_2": 45.499875, "Name": "PNRS BEAVERTON", "Address": "2715 SW 153RD DR", "City": "BEAVERTON", "State": "OR", "Zip": 97006, "formated_p": "Please call patient admission line", "Status": "open", "Icon": "small_green", "Type_": "Dialysis Center", "ObjectId": 1584 }, "geometry": { "type": "Point", "coordinates": [ -122.8363, 45.4999 ] } },
{ "type": "Feature", "properties": { "X": -117.2365, "Y": 47.6858, "FID": 1188, "CalcLocati": "47.68576800,-117.23648900", "CalcLoca_1": -117.236489, "CalcLoca_2": 47.685768, "Name": "SPOKANE VALLEY RENAL CENTER", "Address": "12610 E MIRABEAU PKWY SUITE 100", "City": "SPOKANE", "State": "WA", "Zip": 99216, "formated_p": "Please call patient admission line", "Status": "open", "Icon": "small_green", "Type_": "Dialysis Center", "ObjectId": 1589 }, "geometry": { "type": "Point", "coordinates": [ -117.2365, 47.6858 ] } },
{ "type": "Feature", "properties": { "X": -120.5277, "Y": 46.6195, "FID": 1189, "CalcLocati": "46.61949100,-120.52771100", "CalcLoca_1": -120.527711, "CalcLoca_2": 46.619491, "Name": "YAKIMA DIALYSIS CENTER", "Address": "1221 N 16TH AVE", "City": "YAKIMA", "State": "WA", "Zip": 98902, "formated_p": "Please call patient admission line", "Status": "open", "Icon": "small_green", "Type_": "Dialysis Center", "ObjectId": 1590 }, "geometry": { "type": "Point", "coordinates": [ -120.5277, 46.6195 ] } },
{ "type": "Feature", "properties": { "X": -122.5865, "Y": 45.6598, "FID": 1190, "CalcLocati": "45.65976500,-122.58653200", "CalcLoca_1": -122.586532, "CalcLoca_2": 45.659765, "Name": "VANCOUVER DIALYSIS CENTER", "Address": "9120 NE VANCOUVER MALL DR SUITE 160", "City": "VANCOUVER", "State": "WA", "Zip": 98682, "formated_p": "Please call patient admission line", "Status": "open", "Icon": "small_green", "Type_": "Dialysis Center", "ObjectId": 1591 }, "geometry": { "type": "Point", "coordinates": [ -122.5865, 45.6598 ] } },
{ "type": "Feature", "properties": { "X": -122.8056, "Y": 48.1028, "FID": 1191, "CalcLocati": "48.10279600,-122.80555000", "CalcLoca_1": -122.80555, "CalcLoca_2": 48.102796, "Name": "OLYMPIC PENINSULA KIDNEY CENTER NORTHWEST", "Address": "2500 SIMS WAY STE 102", "City": "PORT TOWNSEND", "State": "WA", "Zip": 98368, "formated_p": "Please call patient admission line", "Status": "open", "Icon": "small_green", "Type_": "Dialysis Center", "ObjectId": 1592 }, "geometry": { "type": "Point", "coordinates": [ -122.8056, 48.1028 ] } },
{ "type": "Feature", "properties": { "X": -120.2294, "Y": 46.4043, "FID": 1192, "CalcLocati": "46.40425200,-120.22935500", "CalcLoca_1": -120.229355, "CalcLoca_2": 46.404252, "Name": "ZILLAH DIALYSIS", "Address": "823 ZILLAH WEST RD STE 300", "City": "ZILLAH", "State": "WA", "Zip": 98953, "formated_p": "Please call patient admission line", "Status": "open", "Icon": "small_green", "Type_": "Dialysis Center", "ObjectId": 1593 }, "geometry": { "type": "Point", "coordinates": [ -120.2294, 46.4043 ] } },
{ "type": "Feature", "properties": { "X": -122.7534, "Y": 47.06, "FID": 1193, "CalcLocati": "47.06000900,-122.75339800", "CalcLoca_1": -122.753398, "CalcLoca_2": 47.060009, "Name": "FMC THURSTON COUNTY DIALYSIS CENTER", "Address": "8770 TALLON LN NE", "City": "LACEY", "State": "WA", "Zip": 98516, "formated_p": "Please call patient admission line", "Status": "open", "Icon": "small_green", "Type_": "Dialysis Center", "ObjectId": 1594 }, "geometry": { "type": "Point", "coordinates": [ -122.7534, 47.06 ] } },
{ "type": "Feature", "properties": { "X": -122.3237, "Y": 48.4198, "FID": 1194, "CalcLocati": "48.41983000,-122.32369100", "CalcLoca_1": -122.323691, "CalcLoca_2": 48.41983, "Name": "RENAL CARE GROUP NORTHWEST, INC.", "Address": "208 Hospital Pkwy STE A", "City": "Mount Vernon", "State": "WA", "Zip": 98273, "formated_p": "Please call patient admission line", "Status": "open", "Icon": "small_green", "Type_": "Dialysis Center", "ObjectId": 1595 }, "geometry": { "type": "Point", "coordinates": [ -122.3237, 48.4198 ] } },
{ "type": "Feature", "properties": { "X": -122.4768, "Y": 48.7775, "FID": 2022, "CalcLocati": "48.77751500,-122.47676700", "CalcLoca_1": -122.476767, "CalcLoca_2": 48.777515, "Name": "DAVITA MT BAKER KIDNEY CENTER", "Address": "410 BIRCHWOOD  SUITE 100", "City": "BELLINGHAM", "State": "WA", "Zip": 98225, "formated_p": "Please call patient admission line", "Status": "open", "Icon": "small_green", "Type_": "Dialysis Center", "ObjectId": 2032 }, "geometry": { "type": "Point", "coordinates": [ -122.4768, 48.7775 ] } },
{ "type": "Feature", "properties": { "X": -119.2092, "Y": 46.2229, "FID": 2023, "CalcLocati": "46.22294400,-119.20923600", "CalcLoca_1": -119.209236, "CalcLoca_2": 46.222944, "Name": "FKC COLUMBIA BASIN", "Address": "6600 West Rio Grande Avenue", "City": "KENNEWICK", "State": "WA", "Zip": 99336, "formated_p": "Please call patient admission line", "Status": "open", "Icon": "small_green", "Type_": "Dialysis Center", "ObjectId": 2033 }, "geometry": { "type": "Point", "coordinates": [ -119.2092, 46.2229 ] } },
{ "type": "Feature", "properties": { "X": -123.8455, "Y": 46.9672, "FID": 2024, "CalcLocati": "46.96721900,-123.84546400", "CalcLoca_1": -123.845464, "CalcLoca_2": 46.967219, "Name": "FMC ABERDEEN", "Address": "2012 INDUSTRIAL PKWY", "City": "ABERDEEN", "State": "WA", "Zip": 98520, "formated_p": "Please call patient admission line", "Status": "open", "Icon": "small_green", "Type_": "Dialysis Center", "ObjectId": 2034 }, "geometry": { "type": "Point", "coordinates": [ -123.8455, 46.9672 ] } },
{ "type": "Feature", "properties": { "X": -119.1746, "Y": 46.8206, "FID": 2025, "CalcLocati": "46.82063400,-119.17462500", "CalcLoca_1": -119.174625, "CalcLoca_2": 46.820634, "Name": "FMC LEAH LAYNE DIALYSIS CENTER", "Address": "530 S 1ST AVE", "City": "OTHELLO", "State": "WA", "Zip": 99344, "formated_p": "Please call patient admission line", "Status": "open", "Icon": "small_green", "Type_": "Dialysis Center", "ObjectId": 2035 }, "geometry": { "type": "Point", "coordinates": [ -119.1746, 46.8206 ] } },
{ "type": "Feature", "properties": { "X": -122.2771, "Y": 47.8785, "FID": 2026, "CalcLocati": "47.87845400,-122.27706600", "CalcLoca_1": -122.277066, "CalcLoca_2": 47.878454, "Name": "DaVita Lynnwood Dialysis", "Address": "13619 Mukilteo Speedway", "City": "LYNNWOOD", "State": "WA", "Zip": 98037, "formated_p": "Please call patient admission line", "Status": "open", "Icon": "small_green", "Type_": "Dialysis Center", "ObjectId": 2036 }, "geometry": { "type": "Point", "coordinates": [ -122.2771, 47.8785 ] } },
{ "type": "Feature", "properties": { "X": -124.0543, "Y": 46.3404, "FID": 2180, "CalcLocati": "46.34041100,-124.05429600", "CalcLoca_1": -124.054296, "CalcLoca_2": 46.340411, "Name": "SEAVIEW DIALYSIS CENTER", "Address": "101 18TH ST S", "City": "LONG BEACH", "State": "WA", "Zip": 98631, "formated_p": "Please call patient admission line", "Status": "open", "Icon": "small_green", "Type_": "Dialysis Center", "ObjectId": 2485 }, "geometry": { "type": "Point", "coordinates": [ -124.0543, 46.3404 ] } },
{ "type": "Feature", "properties": { "X": -122.3081, "Y": 47.4873, "FID": 5601, "CalcLocati": "47.48727400,-122.30810400", "CalcLoca_1": -122.308104, "CalcLoca_2": 47.487274, "Name": "NKC BURIEN KIDNEY CENTER", "Address": "12901 20th Ave South", "City": "SeaTac", "State": "WA", "Zip": 98168, "formated_p": "Please call patient admission line", "Status": "open", "Icon": "small_green", "Type_": "Dialysis Center", "ObjectId": 5082 }, "geometry": { "type": "Point", "coordinates": [ -122.3081, 47.4873 ] } },
{ "type": "Feature", "properties": { "X": -122.6573, "Y": 45.6884, "FID": 5604, "CalcLocati": "45.68839800,-122.65726500", "CalcLoca_1": -122.657265, "CalcLoca_2": 45.688398, "Name": "PNRS SALMON CREEK", "Address": "9105 HIGHWAY 99  STE 102", "City": "VANCOUVER", "State": "WA", "Zip": 98665, "formated_p": "Please call patient admission line", "Status": "open", "Icon": "small_green", "Type_": "Dialysis Center", "ObjectId": 5139 }, "geometry": { "type": "Point", "coordinates": [ -122.6573, 45.6884 ] } },
{ "type": "Feature", "properties": { "X": -122.3122, "Y": 47.619, "FID": 5607, "CalcLocati": "47.61902100,-122.31220600", "CalcLoca_1": -122.312206, "CalcLoca_2": 47.619021, "Name": "OLYMPIC VIEW DIALYSIS CENTER", "Address": "125 16TH AVE E, CSB-5", "City": "SEATTLE", "State": "WA", "Zip": 98112, "formated_p": "Please call patient admission line", "Status": "open", "Icon": "small_green", "Type_": "Dialysis Center", "ObjectId": 5159 }, "geometry": { "type": "Point", "coordinates": [ -122.3122, 47.619 ] } },
{ "type": "Feature", "properties": { "X": -122.2285, "Y": 47.4052, "FID": 5610, "CalcLocati": "47.40517900,-122.22846900", "CalcLoca_1": -122.228469, "CalcLoca_2": 47.405179, "Name": "KENT COMMUNITY DIALYSIS CENTER", "Address": "21851 84th Ave S", "City": "KENT", "State": "WA", "Zip": 98032, "formated_p": "Please call patient admission line", "Status": "open", "Icon": "small_green", "Type_": "Dialysis Center", "ObjectId": 5180 }, "geometry": { "type": "Point", "coordinates": [ -122.2285, 47.4052 ] } },
{ "type": "Feature", "properties": { "X": -117.4033, "Y": 47.6507, "FID": 5613, "CalcLocati": "47.65074800,-117.40327000", "CalcLoca_1": -117.40327, "CalcLoca_2": 47.650748, "Name": "FMC SPOKANE KIDNEY CENTER", "Address": "610 S SHERMAN AVE SUITE 101", "City": "SPOKANE", "State": "WA", "Zip": 99202, "formated_p": "Please call patient admission line", "Status": "open", "Icon": "small_green", "Type_": "Dialysis Center", "ObjectId": 5209 }, "geometry": { "type": "Point", "coordinates": [ -117.4033, 47.6507 ] } },
{ "type": "Feature", "properties": { "X": -117.393, "Y": 47.7454, "FID": 5615, "CalcLocati": "47.74538900,-117.39295400", "CalcLoca_1": -117.392954, "CalcLoca_2": 47.745389, "Name": "FMC NORTHPOINTE DIALYSIS UNIT", "Address": "1116 E Westview Court", "City": "SPOKANE", "State": "WA", "Zip": 99218, "formated_p": "Please call patient admission line", "Status": "open", "Icon": "small_green", "Type_": "Dialysis Center", "ObjectId": 5225 }, "geometry": { "type": "Point", "coordinates": [ -117.393, 47.7454 ] } },
{ "type": "Feature", "properties": { "X": -122.4407, "Y": 45.5108, "FID": 5516, "CalcLocati": "45.51075300,-122.44065900", "CalcLoca_1": -122.440659, "CalcLoca_2": 45.510753, "Name": "DaVita Gresham Station Dialysis", "Address": "878 NW BURNSIDE RD", "City": "GRESHAM", "State": "OR", "Zip": 97030, "formated_p": "Please call patient admission line", "Status": "open", "Icon": "small_green", "Type_": "Dialysis Center", "ObjectId": 5226 }, "geometry": { "type": "Point", "coordinates": [ -122.4407, 45.5108 ] } },
{ "type": "Feature", "properties": { "X": -122.6607, "Y": 45.5769, "FID": 5519, "CalcLocati": "45.57685900,-122.66070300", "CalcLoca_1": -122.660703, "CalcLoca_2": 45.576859, "Name": "ROSE CITY DIALYSIS LLC", "Address": "7474 NE Martin Luther King Jr Blvd", "City": "PORTLAND", "State": "OR", "Zip": 97211, "formated_p": "Please call patient admission line", "Status": "open", "Icon": "small_green", "Type_": "Dialysis Center", "ObjectId": 5251 }, "geometry": { "type": "Point", "coordinates": [ -122.6607, 45.5769 ] } },
{ "type": "Feature", "properties": { "X": -119.2688, "Y": 47.1355, "FID": 5619, "CalcLocati": "47.13553300,-119.26875400", "CalcLoca_1": -119.268754, "CalcLoca_2": 47.135533, "Name": "FMC MOSES LAKE DIALYSIS UNIT", "Address": "847 A East Broadway Ave", "City": "MOSES LAKE", "State": "WA", "Zip": 98837, "formated_p": "Please call patient admission line", "Status": "open", "Icon": "small_green", "Type_": "Dialysis Center", "ObjectId": 5270 }, "geometry": { "type": "Point", "coordinates": [ -119.2688, 47.1355 ] } },
{ "type": "Feature", "properties": { "X": -122.8476, "Y": 47.0563, "FID": 5622, "CalcLocati": "47.05633200,-122.84764600", "CalcLoca_1": -122.847646, "CalcLoca_2": 47.056332, "Name": "FMC LACEY", "Address": "3406 12th Ave NE", "City": "OLYMPIA", "State": "WA", "Zip": 98506, "formated_p": "Please call patient admission line", "Status": "open", "Icon": "small_green", "Type_": "Dialysis Center", "ObjectId": 5291 }, "geometry": { "type": "Point", "coordinates": [ -122.8476, 47.0563 ] } },
{ "type": "Feature", "properties": { "X": -122.6567, "Y": 47.5225, "FID": 5625, "CalcLocati": "47.52253300,-122.65668800", "CalcLoca_1": -122.656688, "CalcLoca_2": 47.522533, "Name": "OLYMPIC PENINSULA KC - SOUTH KITSAP", "Address": "450 S KITSAP BLVD BLDG 1, SUITE 178", "City": "PORT ORCHARD", "State": "WA", "Zip": 98366, "formated_p": "Please call patient admission line", "Status": "open", "Icon": "small_green", "Type_": "Dialysis Center", "ObjectId": 5323 }, "geometry": { "type": "Point", "coordinates": [ -122.6567, 47.5225 ] } },
{ "type": "Feature", "properties": { "X": -119.5452, "Y": 48.3962, "FID": 5628, "CalcLocati": "48.39618900,-119.54524300", "CalcLoca_1": -119.545243, "CalcLoca_2": 48.396189, "Name": "FMC OMAK DIALYSIS CENTER", "Address": "800 JASMINE ST. SUITE 1", "City": "OMAK", "State": "WA", "Zip": 98841, "formated_p": "Please call patient admission line", "Status": "open", "Icon": "small_green", "Type_": "Dialysis Center", "ObjectId": 5350 }, "geometry": { "type": "Point", "coordinates": [ -119.5452, 48.3962 ] } },
{ "type": "Feature", "properties": { "X": -122.2823, "Y": 47.6624, "FID": 5538, "CalcLocati": "47.66243000,-122.28229100", "CalcLoca_1": -122.282291, "CalcLoca_2": 47.66243, "Name": "SEATTLE CHILDRENS HOSPITAL DIALYSIS", "Address": "4800 SAND POINT WAY NE OC.9.820", "City": "SEATTLE", "State": "WA", "Zip": 98105, "formated_p": "Please call patient admission line", "Status": "open", "Icon": "small_green", "Type_": "Dialysis Center", "ObjectId": 5372 }, "geometry": { "type": "Point", "coordinates": [ -122.2823, 47.6624 ] } },
{ "type": "Feature", "properties": { "X": -122.3023, "Y": 47.1625, "FID": 5631, "CalcLocati": "47.16248900,-122.30228400", "CalcLoca_1": -122.302284, "CalcLoca_2": 47.162489, "Name": "PUYALLUP COMMUNITY DIALYSIS CENTER", "Address": "802 30th Ave SW", "City": "PUYALLUP", "State": "WA", "Zip": 98373, "formated_p": "Please call patient admission line", "Status": "open", "Icon": "small_green", "Type_": "Dialysis Center", "ObjectId": 5376 }, "geometry": { "type": "Point", "coordinates": [ -122.3023, 47.1625 ] } },
{ "type": "Feature", "properties": { "X": -122.9244, "Y": 46.1369, "FID": 5541, "CalcLocati": "46.13694600,-122.92443400", "CalcLoca_1": -122.924434, "CalcLoca_2": 46.136946, "Name": "PEACEHEALTH DIALYSIS CENTER", "Address": "600 N BROADWAY", "City": "LONGVIEW", "State": "WA", "Zip": 98632, "formated_p": "Please call patient admission line", "Status": "open", "Icon": "small_green", "Type_": "Dialysis Center", "ObjectId": 5398 }, "geometry": { "type": "Point", "coordinates": [ -122.9244, 46.1369 ] } },
{ "type": "Feature", "properties": { "X": -117.2405, "Y": 47.6668, "FID": 5634, "CalcLocati": "47.66683600,-117.24051400", "CalcLoca_1": -117.240514, "CalcLoca_2": 47.666836, "Name": "FMC VALLEY DIALYSIS UNIT", "Address": "1017 NORTH PINES RD", "City": "SPOKANE", "State": "WA", "Zip": 99206, "formated_p": "Please call patient admission line", "Status": "open", "Icon": "small_green", "Type_": "Dialysis Center", "ObjectId": 5400 }, "geometry": { "type": "Point", "coordinates": [ -117.2405, 47.6668 ] } },
{ "type": "Feature", "properties": { "X": -122.292, "Y": 47.7346, "FID": 5636, "CalcLocati": "47.73458000,-122.29195100", "CalcLoca_1": -122.291951, "CalcLoca_2": 47.73458, "Name": "NKC LAKE CITY KIDNEY CENTER", "Address": "14524 BOTHELL WAY NE", "City": "LAKE FOREST PARK", "State": "WA", "Zip": 98155, "formated_p": "Please call patient admission line", "Status": "open", "Icon": "small_green", "Type_": "Dialysis Center", "ObjectId": 5414 }, "geometry": { "type": "Point", "coordinates": [ -122.292, 47.7346 ] } },
{ "type": "Feature", "properties": { "X": -117.0545, "Y": 46.4035, "FID": 5544, "CalcLocati": "46.40347900,-117.05453900", "CalcLoca_1": -117.054539, "CalcLoca_2": 46.403479, "Name": "TRI-STATE MEMORIAL HOSPITAL INC DIALYSIS UNIT", "Address": "1221 HIGHLAND AVE", "City": "CLARKSTON", "State": "WA", "Zip": 99403, "formated_p": "Please call patient admission line", "Status": "open", "Icon": "small_green", "Type_": "Dialysis Center", "ObjectId": 5427 }, "geometry": { "type": "Point", "coordinates": [ -117.0545, 46.4035 ] } },
{ "type": "Feature", "properties": { "X": -122.3125, "Y": 47.6077, "FID": 5547, "CalcLocati": "47.60767200,-122.31252800", "CalcLoca_1": -122.312528, "CalcLoca_2": 47.607672, "Name": "NKC SEATTLE KIDNEY CENTER", "Address": "548 15TH AVE", "City": "SEATTLE", "State": "WA", "Zip": 98122, "formated_p": "Please call patient admission line", "Status": "open", "Icon": "small_green", "Type_": "Dialysis Center", "ObjectId": 5448 }, "geometry": { "type": "Point", "coordinates": [ -122.3125, 47.6077 ] } },
{ "type": "Feature", "properties": { "X": -117.4122, "Y": 47.7283, "FID": 5640, "CalcLocati": "47.72833000,-117.41215800", "CalcLoca_1": -117.412158, "CalcLoca_2": 47.72833, "Name": "NORTH SPOKANE RENAL CENTER", "Address": "7701 N DIVISION STREET STE B", "City": "SPOKANE", "State": "WA", "Zip": 99208, "formated_p": "Please call patient admission line", "Status": "open", "Icon": "small_green", "Type_": "Dialysis Center", "ObjectId": 5449 }, "geometry": { "type": "Point", "coordinates": [ -117.4122, 47.7283 ] } },
{ "type": "Feature", "properties": { "X": -122.6273, "Y": 47.584, "FID": 5550, "CalcLocati": "47.58401200,-122.62731900", "CalcLoca_1": -122.627319, "CalcLoca_2": 47.584012, "Name": "OLYMPIC PENINSULA KIDNEY CENTER", "Address": "2613 WHEATON WAY", "City": "BREMERTON", "State": "WA", "Zip": 98310, "formated_p": "Please call patient admission line", "Status": "open", "Icon": "small_green", "Type_": "Dialysis Center", "ObjectId": 5463 }, "geometry": { "type": "Point", "coordinates": [ -122.6273, 47.584 ] } },
{ "type": "Feature", "properties": { "X": -122.2168, "Y": 47.9768, "FID": 5552, "CalcLocati": "47.97675100,-122.21677300", "CalcLoca_1": -122.216773, "CalcLoca_2": 47.976751, "Name": "PUGET SOUND KIDNEY CENTER", "Address": "1005 PACIFIC AVE", "City": "EVERETT", "State": "WA", "Zip": 98201, "formated_p": "Please call patient admission line", "Status": "open", "Icon": "small_green", "Type_": "Dialysis Center", "ObjectId": 5476 }, "geometry": { "type": "Point", "coordinates": [ -122.2168, 47.9768 ] } },
{ "type": "Feature", "properties": { "X": -122.9278, "Y": 46.6236, "FID": 5643, "CalcLocati": "46.62361200,-122.92784200", "CalcLoca_1": -122.927842, "CalcLoca_2": 46.623612, "Name": "FMC CHEHALIS", "Address": "1684 Bishop RD", "City": "CHEHALIS", "State": "WA", "Zip": 98532, "formated_p": "Please call patient admission line", "Status": "open", "Icon": "small_green", "Type_": "Dialysis Center", "ObjectId": 5481 }, "geometry": { "type": "Point", "coordinates": [ -122.9278, 46.6236 ] } },
{ "type": "Feature", "properties": { "X": -121.8715, "Y": 47.5254, "FID": 5646, "CalcLocati": "47.52537200,-121.87149100", "CalcLoca_1": -121.871491, "CalcLoca_2": 47.525372, "Name": "NKC SNOQUALMIE RIDGE KIDNEY CENTER", "Address": "35131 SE DOUGLAS ST SUITE 113", "City": "SNOQUALMIE", "State": "WA", "Zip": 98065, "formated_p": "Please call patient admission line", "Status": "open", "Icon": "small_green", "Type_": "Dialysis Center", "ObjectId": 5506 }, "geometry": { "type": "Point", "coordinates": [ -121.8715, 47.5254 ] } },
{ "type": "Feature", "properties": { "X": -122.1896, "Y": 47.6238, "FID": 5557, "CalcLocati": "47.62384100,-122.18964600", "CalcLoca_1": -122.189646, "CalcLoca_2": 47.623841, "Name": "NKC LAKE WASHINGTON KIDNEY CENTER", "Address": "1474 112TH AVE NE, SUITE 100", "City": "BELLEVUE", "State": "WA", "Zip": 98004, "formated_p": "Please call patient admission line", "Status": "open", "Icon": "small_green", "Type_": "Dialysis Center", "ObjectId": 5521 }, "geometry": { "type": "Point", "coordinates": [ -122.1896, 47.6238 ] } },
{ "type": "Feature", "properties": { "X": -122.1715, "Y": 47.5787, "FID": 5649, "CalcLocati": "47.57872800,-122.17151000", "CalcLoca_1": -122.17151, "CalcLoca_2": 47.578728, "Name": "BELLEVUE DIALYSIS CENTER", "Address": "3535 FACTORIA BLVD SE  #150", "City": "BELLEVUE", "State": "WA", "Zip": 98006, "formated_p": "Please call patient admission line", "Status": "open", "Icon": "small_green", "Type_": "Dialysis Center", "ObjectId": 5530 }, "geometry": { "type": "Point", "coordinates": [ -122.1715, 47.5787 ] } },
{ "type": "Feature", "properties": { "X": -122.3319, "Y": 47.7075, "FID": 5559, "CalcLocati": "47.70747800,-122.33193500", "CalcLoca_1": -122.331935, "CalcLoca_2": 47.707478, "Name": "NKC SCRIBNER KIDNEY CENTER", "Address": "2150 N 107TH, SUITE 160", "City": "SEATTLE", "State": "WA", "Zip": 98133, "formated_p": "Please call patient admission line", "Status": "open", "Icon": "small_green", "Type_": "Dialysis Center", "ObjectId": 5532 }, "geometry": { "type": "Point", "coordinates": [ -122.3319, 47.7075 ] } },
{ "type": "Feature", "properties": { "X": -122.2374, "Y": 47.474, "FID": 5562, "CalcLocati": "47.47398600,-122.23735600", "CalcLoca_1": -122.237356, "CalcLoca_2": 47.473986, "Name": "NKC RENTON KIDNEY CENTER", "Address": "602 OAKESDALE AVE SW", "City": "RENTON", "State": "WA", "Zip": 98057, "formated_p": "Please call patient admission line", "Status": "open", "Icon": "small_green", "Type_": "Dialysis Center", "ObjectId": 5556 }, "geometry": { "type": "Point", "coordinates": [ -122.2374, 47.474 ] } },
{ "type": "Feature", "properties": { "X": -120.5005, "Y": 46.5574, "FID": 5652, "CalcLocati": "46.55743300,-120.50051200", "CalcLoca_1": -120.500512, "CalcLoca_2": 46.557433, "Name": "UNION GAP DIALYSIS CENTER", "Address": "1236 AHTANUM RIDGE BUSINESS PARK", "City": "UNION GAP", "State": "WA", "Zip": 98903, "formated_p": "Please call patient admission line", "Status": "open", "Icon": "small_green", "Type_": "Dialysis Center", "ObjectId": 5561 }, "geometry": { "type": "Point", "coordinates": [ -120.5005, 46.5574 ] } },
{ "type": "Feature", "properties": { "X": -122.2945, "Y": 47.4426, "FID": 5565, "CalcLocati": "47.44256100,-122.29449300", "CalcLoca_1": -122.294493, "CalcLoca_2": 47.442561, "Name": "NKC SEATAC KIDNEY CENTER", "Address": "17900 INTERNATIONAL BLVD S, STE 301", "City": "SEATAC", "State": "WA", "Zip": 98188, "formated_p": "Please call patient admission line", "Status": "open", "Icon": "small_green", "Type_": "Dialysis Center", "ObjectId": 5571 }, "geometry": { "type": "Point", "coordinates": [ -122.2945, 47.4426 ] } },
{ "type": "Feature", "properties": { "X": -123.4173, "Y": 48.115, "FID": 5568, "CalcLocati": "48.11497200,-123.41732900", "CalcLoca_1": -123.417329, "CalcLoca_2": 48.114972, "Name": "NKC PORT ANGELES KIDNEY CENTER", "Address": "809 GEORGIANA ST", "City": "PORT ANGELES", "State": "WA", "Zip": 98362, "formated_p": "Please call patient admission line", "Status": "open", "Icon": "small_green", "Type_": "Dialysis Center", "ObjectId": 5589 }, "geometry": { "type": "Point", "coordinates": [ -123.4173, 48.115 ] } },
{ "type": "Feature", "properties": { "X": -122.3662, "Y": 47.5244, "FID": 5657, "CalcLocati": "47.52436300,-122.36621700", "CalcLoca_1": -122.366217, "CalcLoca_2": 47.524363, "Name": "WESTWOOD DIALYSIS CENTER", "Address": "2615 SW TRENTON ST", "City": "SEATTLE", "State": "WA", "Zip": 98126, "formated_p": "Please call patient admission line", "Status": "open", "Icon": "small_green", "Type_": "Dialysis Center", "ObjectId": 5600 }, "geometry": { "type": "Point", "coordinates": [ -122.3662, 47.5244 ] } },
{ "type": "Feature", "properties": { "X": -122.3201, "Y": 47.6078, "FID": 5572, "CalcLocati": "47.60778600,-122.32013100", "CalcLoca_1": -122.320131, "CalcLoca_2": 47.607786, "Name": "NKC ELLIOTT BAY KIDNEY CENTER", "Address": "600 BROADWAY, SUITE 240", "City": "SEATTLE", "State": "WA", "Zip": 98122, "formated_p": "Please call patient admission line", "Status": "open", "Icon": "small_green", "Type_": "Dialysis Center", "ObjectId": 5623 }, "geometry": { "type": "Point", "coordinates": [ -122.3201, 47.6078 ] } },
{ "type": "Feature", "properties": { "X": -122.6426, "Y": 48.2947, "FID": 5659, "CalcLocati": "48.29466700,-122.64260400", "CalcLoca_1": -122.642604, "CalcLoca_2": 48.294667, "Name": "PUGET SOUND KIDNEY CENTER WHIDBEY ISLAND", "Address": "430 SE MIDWAY BLVD", "City": "OAK HARBOR", "State": "WA", "Zip": 98277, "formated_p": "Please call patient admission line", "Status": "open", "Icon": "small_green", "Type_": "Dialysis Center", "ObjectId": 5635 }, "geometry": { "type": "Point", "coordinates": [ -122.6426, 48.2947 ] } },
{ "type": "Feature", "properties": { "X": -122.1877, "Y": 48.1686, "FID": 5662, "CalcLocati": "48.16855100,-122.18767500", "CalcLoca_1": -122.187675, "CalcLoca_2": 48.168551, "Name": "PUGET SOUND KIDNEY CENTER SMOKEY POINT", "Address": "18828 SMOKEY POINT BLVD", "City": "ARLINGTON", "State": "WA", "Zip": 98223, "formated_p": "Please call patient admission line", "Status": "open", "Icon": "small_green", "Type_": "Dialysis Center", "ObjectId": 5641 }, "geometry": { "type": "Point", "coordinates": [ -122.1877, 48.1686 ] } },
{ "type": "Feature", "properties": { "X": -117.4215, "Y": 47.6512, "FID": 5665, "CalcLocati": "47.65119600,-117.42153200", "CalcLoca_1": -117.421532, "CalcLoca_2": 47.651196, "Name": "DOWNTOWN SPOKANE RENAL CENTER", "Address": "601 WEST 5TH AVE STE 101", "City": "SPOKANE", "State": "WA", "Zip": 99204, "formated_p": "Please call patient admission line", "Status": "open", "Icon": "small_green", "Type_": "Dialysis Center", "ObjectId": 5647 }, "geometry": { "type": "Point", "coordinates": [ -117.4215, 47.6512 ] } },
{ "type": "Feature", "properties": { "X": -123.1117, "Y": 47.2268, "FID": 5668, "CalcLocati": "47.22676700,-123.11169900", "CalcLoca_1": -123.111699, "CalcLoca_2": 47.226767, "Name": "FMC SHELTON", "Address": "1872 N 13TH LOOP RD", "City": "SHELTON", "State": "WA", "Zip": 98584, "formated_p": "Please call patient admission line", "Status": "open", "Icon": "small_green", "Type_": "Dialysis Center", "ObjectId": 5663 }, "geometry": { "type": "Point", "coordinates": [ -123.1117, 47.2268 ] } },
{ "type": "Feature", "properties": { "X": -122.3213, "Y": 47.2895, "FID": 5577, "CalcLocati": "47.28950000,-122.32125200", "CalcLoca_1": -122.321252, "CalcLoca_2": 47.2895, "Name": "FEDERAL WAY COMMUNITY DIALYSIS CENTER", "Address": "1015 S 348TH ST", "City": "FEDERAL WAY", "State": "WA", "Zip": 98003, "formated_p": "Please call patient admission line", "Status": "open", "Icon": "small_green", "Type_": "Dialysis Center", "ObjectId": 5673 }, "geometry": { "type": "Point", "coordinates": [ -122.3213, 47.2895 ] } },
{ "type": "Feature", "properties": { "X": -119.9776, "Y": 46.3085, "FID": 5579, "CalcLocati": "46.30849800,-119.97761500", "CalcLoca_1": -119.977615, "CalcLoca_2": 46.308498, "Name": "MT ADAMS KIDNEY CENTER", "Address": "3220 PICARD PLACE", "City": "SUNNYSIDE", "State": "WA", "Zip": 98944, "formated_p": "Please call patient admission line", "Status": "open", "Icon": "small_green", "Type_": "Dialysis Center", "ObjectId": 5695 }, "geometry": { "type": "Point", "coordinates": [ -119.9776, 46.3085 ] } },
{ "type": "Feature", "properties": { "X": -122.6354, "Y": 47.7388, "FID": 5671, "CalcLocati": "47.73876000,-122.63539100", "CalcLoca_1": -122.635391, "CalcLoca_2": 47.73876, "Name": "OLYMPIC PENINSULA KIDNEY CENTER - NORTH", "Address": "19472 POWDER HILL PL STE 100", "City": "POULSBO", "State": "WA", "Zip": 98370, "formated_p": "Please call patient admission line", "Status": "open", "Icon": "small_green", "Type_": "Dialysis Center", "ObjectId": 5698 }, "geometry": { "type": "Point", "coordinates": [ -122.6354, 47.7388 ] } },
{ "type": "Feature", "properties": { "X": -122.1897, "Y": 47.7061, "FID": 5582, "CalcLocati": "47.70611800,-122.18973600", "CalcLoca_1": -122.189736, "CalcLoca_2": 47.706118, "Name": "NKC KIRKLAND KIDNEY CENTER", "Address": "11327 NE 120TH ST", "City": "KIRKLAND", "State": "WA", "Zip": 98034, "formated_p": "Please call patient admission line", "Status": "open", "Icon": "small_green", "Type_": "Dialysis Center", "ObjectId": 5719 }, "geometry": { "type": "Point", "coordinates": [ -122.1897, 47.7061 ] } },
{ "type": "Feature", "properties": { "X": -122.4809, "Y": 47.2431, "FID": 5675, "CalcLocati": "47.24310600,-122.48092100", "CalcLoca_1": -122.480921, "CalcLoca_2": 47.243106, "Name": "TACOMA DIALYSIS CENTER", "Address": "3401 S 19TH ST", "City": "TACOMA", "State": "WA", "Zip": 98405, "formated_p": "Please call patient admission line", "Status": "open", "Icon": "small_green", "Type_": "Dialysis Center", "ObjectId": 5743 }, "geometry": { "type": "Point", "coordinates": [ -122.4809, 47.2431 ] } },
{ "type": "Feature", "properties": { "X": -118.3422, "Y": 46.0628, "FID": 5585, "CalcLocati": "46.06278800,-118.34219800", "CalcLoca_1": -118.342198, "CalcLoca_2": 46.062788, "Name": "QUALICENTERS - WALLA WALLA LLC", "Address": "301 W POPLAR STE 120", "City": "WALLA WALLA", "State": "WA", "Zip": 99362, "formated_p": "Please call patient admission line", "Status": "open", "Icon": "small_green", "Type_": "Dialysis Center", "ObjectId": 5749 }, "geometry": { "type": "Point", "coordinates": [ -118.3422, 46.0628 ] } },
{ "type": "Feature", "properties": { "X": -122.5161, "Y": 47.1654, "FID": 5588, "CalcLocati": "47.16539000,-122.51605400", "CalcLoca_1": -122.516054, "CalcLoca_2": 47.16539, "Name": "Lakewood Community Dialysis Center", "Address": "5919 LAKEWOOD TOWNE CENTER BLVD SW  #A", "City": "LAKEWOOD", "State": "WA", "Zip": 98499, "formated_p": "Please call patient admission line", "Status": "open", "Icon": "small_green", "Type_": "Dialysis Center", "ObjectId": 5769 }, "geometry": { "type": "Point", "coordinates": [ -122.5161, 47.1654 ] } },
{ "type": "Feature", "properties": { "X": -122.2505, "Y": 47.3228, "FID": 5591, "CalcLocati": "47.32283900,-122.25047900", "CalcLoca_1": -122.250479, "CalcLoca_2": 47.322839, "Name": "NKC AUBURN KIDNEY CENTER", "Address": "1501 WEST VALLEY HIGHWAY N", "City": "AUBURN", "State": "WA", "Zip": 98001, "formated_p": "Please call patient admission line", "Status": "open", "Icon": "small_green", "Type_": "Dialysis Center", "ObjectId": 5788 }, "geometry": { "type": "Point", "coordinates": [ -122.2505, 47.3228 ] } },
{ "type": "Feature", "properties": { "X": -120.579, "Y": 47.0024, "FID": 5679, "CalcLocati": "47.00237700,-120.57903700", "CalcLoca_1": -120.579037, "CalcLoca_2": 47.002377, "Name": "ELLENSBURG DIALYSIS CENTER", "Address": "2101 W DOLAR WAY RD STE 1", "City": "ELLENSBURG", "State": "WA", "Zip": 98926, "formated_p": "Please call patient admission line", "Status": "open", "Icon": "small_green", "Type_": "Dialysis Center", "ObjectId": 5793 }, "geometry": { "type": "Point", "coordinates": [ -120.579, 47.0024 ] } },
{ "type": "Feature", "properties": { "X": -122.2419, "Y": 47.3743, "FID": 5682, "CalcLocati": "47.37431300,-122.24192500", "CalcLoca_1": -122.241925, "CalcLoca_2": 47.374313, "Name": "NKC KENT KIDNEY CENTER", "Address": "25316 74TH AVE S STE 101", "City": "KENT", "State": "WA", "Zip": 98032, "formated_p": "Please call patient admission line", "Status": "open", "Icon": "small_green", "Type_": "Dialysis Center", "ObjectId": 5814 }, "geometry": { "type": "Point", "coordinates": [ -122.2419, 47.3743 ] } },
{ "type": "Feature", "properties": { "X": -122.2918, "Y": 47.8054, "FID": 5594, "CalcLocati": "47.80542200,-122.29178300", "CalcLoca_1": -122.291783, "CalcLoca_2": 47.805422, "Name": "PUGET SOUND KC SOUTH", "Address": "21309 44TH AVE W", "City": "MOUNTLAKE TERRACE", "State": "WA", "Zip": 98043, "formated_p": "Please call patient admission line", "Status": "open", "Icon": "small_green", "Type_": "Dialysis Center", "ObjectId": 5815 }, "geometry": { "type": "Point", "coordinates": [ -122.2918, 47.8054 ] } },
{ "type": "Feature", "properties": { "X": -122.2933, "Y": 47.078, "FID": 5685, "CalcLocati": "47.07797200,-122.29333100", "CalcLoca_1": -122.293331, "CalcLoca_2": 47.077972, "Name": "GRAHAM DIALYSIS CENTER", "Address": "10219 196TH ST CT E STE C", "City": "GRAHAM", "State": "WA", "Zip": 98338, "formated_p": "Please call patient admission line", "Status": "open", "Icon": "small_green", "Type_": "Dialysis Center", "ObjectId": 5915 }, "geometry": { "type": "Point", "coordinates": [ -122.2933, 47.078 ] } },
{ "type": "Feature", "properties": { "X": -122.5358, "Y": 45.6203, "FID": 5598, "CalcLocati": "45.62028200,-122.53584500", "CalcLoca_1": -122.535845, "CalcLoca_2": 45.620282, "Name": "PNRS FT VANCOUVER", "Address": "312 SE STONEMILL DR SUITE 150", "City": "VANCOUVER", "State": "WA", "Zip": 98684, "formated_p": "Please call patient admission line", "Status": "open", "Icon": "small_green", "Type_": "Dialysis Center", "ObjectId": 5921 }, "geometry": { "type": "Point", "coordinates": [ -122.5358, 45.6203 ] } },
{ "type": "Feature", "properties": { "X": -122.9422, "Y": 47.0484, "FID": 5689, "CalcLocati": "47.04841500,-122.94224200", "CalcLoca_1": -122.942242, "CalcLoca_2": 47.048415, "Name": "OLYMPIA DIALYSIS CENTER", "Address": "335 COOPER POINT RD NW", "City": "OLYMPIA", "State": "WA", "Zip": 98502, "formated_p": "Please call patient admission line", "Status": "open", "Icon": "small_green", "Type_": "Dialysis Center", "ObjectId": 5940 }, "geometry": { "type": "Point", "coordinates": [ -122.9422, 47.0484 ] } },
{ "type": "Feature", "properties": { "X": -122.3203, "Y": 47.6083, "FID": 5693, "CalcLocati": "47.60825100,-122.32031200", "CalcLoca_1": -122.320312, "CalcLoca_2": 47.608251, "Name": "NKC BROADWAY KIDNEY CENTER", "Address": "700 BROADWAY", "City": "SEATTLE", "State": "WA", "Zip": 98122, "formated_p": "Please call patient admission line", "Status": "open", "Icon": "small_green", "Type_": "Dialysis Center", "ObjectId": 5991 }, "geometry": { "type": "Point", "coordinates": [ -122.3203, 47.6083 ] } },
{ "type": "Feature", "properties": { "X": -122.6232, "Y": 48.3583, "FID": 6206, "CalcLocati": "48.35834400,-122.62316300", "CalcLoca_1": -122.623163, "CalcLoca_2": 48.358344, "Name": "WHIDBEY ISLAND DIALYSIS CENTER", "Address": "32650 STATE ROUTE 20 BLDG D-101", "City": "OAK HARBOR", "State": "WA", "Zip": 98277, "formated_p": "Please call patient admission line", "Status": "open", "Icon": "small_green", "Type_": "Dialysis Center", "ObjectId": 6006 }, "geometry": { "type": "Point", "coordinates": [ -122.6232, 48.3583 ] } },
{ "type": "Feature", "properties": { "X": -122.4367, "Y": 47.1307, "FID": 6208, "CalcLocati": "47.13065700,-122.43674200", "CalcLoca_1": -122.436742, "CalcLoca_2": 47.130657, "Name": "PARKLAND DIALYSIS CENTER", "Address": "311 140TH ST S", "City": "TACOMA", "State": "WA", "Zip": 98444, "formated_p": "Please call patient admission line", "Status": "open", "Icon": "small_green", "Type_": "Dialysis Center", "ObjectId": 6008 }, "geometry": { "type": "Point", "coordinates": [ -122.4367, 47.1307 ] } },
{ "type": "Feature", "properties": { "X": -117.4793, "Y": 47.9456, "FID": 6210, "CalcLocati": "47.94564700,-117.47930600", "CalcLoca_1": -117.479306, "CalcLoca_2": 47.945647, "Name": "PANORAMA DIALYSIS", "Address": "822 S MAIN", "City": "DEER PARK", "State": "WA", "Zip": 99006, "formated_p": "Please call patient admission line", "Status": "open", "Icon": "small_green", "Type_": "Dialysis Center", "ObjectId": 6010 }, "geometry": { "type": "Point", "coordinates": [ -117.4793, 47.9456 ] } },
{ "type": "Feature", "properties": { "X": -120.3345, "Y": 47.4627, "FID": 6213, "CalcLocati": "47.46274700,-120.33449800", "CalcLoca_1": -120.334498, "CalcLoca_2": 47.462747, "Name": "WENATCHEE VALLEY DIALYSIS", "Address": "116 OLDS STATION RD", "City": "WENATCHEE", "State": "WA", "Zip": 98801, "formated_p": "Please call patient admission line", "Status": "open", "Icon": "small_green", "Type_": "Dialysis Center", "ObjectId": 6014 }, "geometry": { "type": "Point", "coordinates": [ -120.3345, 47.4627 ] } },
{ "type": "Feature", "properties": { "X": -121.9693, "Y": 47.1996, "FID": 6216, "CalcLocati": "47.19964500,-121.96934300", "CalcLoca_1": -121.969343, "CalcLoca_2": 47.199645, "Name": "NKC ENUMCLAW KIDNEY CENTER", "Address": "857 ROOSEVELT AVE E", "City": "ENUMCLAW", "State": "WA", "Zip": 98022, "formated_p": "Please call patient admission line", "Status": "open", "Icon": "small_green", "Type_": "Dialysis Center", "ObjectId": 6024 }, "geometry": { "type": "Point", "coordinates": [ -121.9693, 47.1996 ] } },
{ "type": "Feature", "properties": { "X": -117.8913, "Y": 48.5334, "FID": 6192, "CalcLocati": "48.53341900,-117.89127300", "CalcLoca_1": -117.891273, "CalcLoca_2": 48.533419, "Name": "FMC COLVILLE", "Address": "147 GARDEN HOMES DR", "City": "COLVILLE", "State": "WA", "Zip": 99114, "formated_p": "Please call patient admission line", "Status": "open", "Icon": "small_green", "Type_": "Dialysis Center", "ObjectId": 6127 }, "geometry": { "type": "Point", "coordinates": [ -117.8913, 48.5334 ] } },
{ "type": "Feature", "properties": { "X": -119.284, "Y": 46.2597, "FID": 6194, "CalcLocati": "46.25970800,-119.28396600", "CalcLoca_1": -119.283966, "CalcLoca_2": 46.259708, "Name": "CHINOOK KIDNEY CENTER", "Address": "1315 AARON DR", "City": "RICHLAND", "State": "WA", "Zip": 99352, "formated_p": "Please call patient admission line", "Status": "open", "Icon": "small_green", "Type_": "Dialysis Center", "ObjectId": 6129 }, "geometry": { "type": "Point", "coordinates": [ -119.284, 46.2597 ] } },
{ "type": "Feature", "properties": { "X": -122.2254, "Y": 47.9249, "FID": 6196, "CalcLocati": "47.92494900,-122.22540200", "CalcLoca_1": -122.225402, "CalcLoca_2": 47.924949, "Name": "EVERETT DIALYSIS CENTER", "Address": "8130 EVERGREEN WAY STE C", "City": "EVERETT", "State": "WA", "Zip": 98203, "formated_p": "Please call patient admission line", "Status": "open", "Icon": "small_green", "Type_": "Dialysis Center", "ObjectId": 6131 }, "geometry": { "type": "Point", "coordinates": [ -122.2254, 47.9249 ] } },
{ "type": "Feature", "properties": { "X": -122.2093, "Y": 47.8341, "FID": 6200, "CalcLocati": "47.83406700,-122.20933300", "CalcLoca_1": -122.209333, "CalcLoca_2": 47.834067, "Name": "MILL CREEK DIALYSIS CENTER", "Address": "18001 BOTHELL EVERETT HWY STE 112", "City": "BOTHELL", "State": "WA", "Zip": 98012, "formated_p": "Please call patient admission line", "Status": "open", "Icon": "small_green", "Type_": "Dialysis Center", "ObjectId": 6135 }, "geometry": { "type": "Point", "coordinates": [ -122.2093, 47.8341 ] } },
{ "type": "Feature", "properties": { "X": -119.164, "Y": 46.1916, "FID": 6219, "CalcLocati": "46.19161800,-119.16397400", "CalcLoca_1": -119.163974, "CalcLoca_2": 46.191618, "Name": "DaVita Kennewick Dialysis", "Address": "3208 W 19TH AVE", "City": "KENNEWICK", "State": "WA", "Zip": 99337, "formated_p": "Please call patient admission line", "Status": "open", "Icon": "small_green", "Type_": "Dialysis Center", "ObjectId": 6144 }, "geometry": { "type": "Point", "coordinates": [ -119.164, 46.1916 ] } },
{ "type": "Feature", "properties": { "X": -122.6101, "Y": 48.4969, "FID": 6223, "CalcLocati": "48.49693100,-122.61013500", "CalcLoca_1": -122.610135, "CalcLoca_2": 48.496931, "Name": "PUGET SOUND KIDNEY CENTERS ANACORTES", "Address": "809 31ST ST", "City": "ANACORTES", "State": "WA", "Zip": 98221, "formated_p": "Please call patient admission line", "Status": "open", "Icon": "small_green", "Type_": "Dialysis Center", "ObjectId": 6172 }, "geometry": { "type": "Point", "coordinates": [ -122.6101, 48.4969 ] } },
{ "type": "Feature", "properties": { "X": -122.5494, "Y": 45.7523, "FID": 6225, "CalcLocati": "45.75233500,-122.54939300", "CalcLoca_1": -122.549393, "CalcLoca_2": 45.752335, "Name": "PNRS CLARK COUNTY DIALYSIS CLINIC", "Address": "3921 SW 13TH AVE", "City": "BATTLE GROUND", "State": "WA", "Zip": 98604, "formated_p": "Please call patient admission line", "Status": "open", "Icon": "small_green", "Type_": "Dialysis Center", "ObjectId": 6187 }, "geometry": { "type": "Point", "coordinates": [ -122.5494, 45.7523 ] } },
{ "type": "Feature", "properties": { "X": -121.9871, "Y": 47.8629, "FID": 6228, "CalcLocati": "47.86290000,-121.98707200", "CalcLoca_1": -121.987072, "CalcLoca_2": 47.8629, "Name": "PUGET SOUND KIDNEY CENTER - MONROE", "Address": "18121 149TH ST SE", "City": "MONROE", "State": "WA", "Zip": 98272, "formated_p": "Please call patient admission line", "Status": "open", "Icon": "small_green", "Type_": "Dialysis Center", "ObjectId": 6210 }, "geometry": { "type": "Point", "coordinates": [ -121.9871, 47.8629 ] } },
{ "type": "Feature", "properties": { "X": -122.1768, "Y": 48.0646, "FID": 6231, "CalcLocati": "48.06462800,-122.17678700", "CalcLoca_1": -122.176787, "CalcLoca_2": 48.064628, "Name": "DaVita Pilchuck Dialysis", "Address": "1250 STATE AVE", "City": "MARYSVILLE", "State": "WA", "Zip": 98270, "formated_p": "Please call patient admission line", "Status": "open", "Icon": "small_green", "Type_": "Dialysis Center", "ObjectId": 6307 }, "geometry": { "type": "Point", "coordinates": [ -122.1768, 48.0646 ] } },
{ "type": "Feature", "properties": { "X": -122.9192, "Y": 46.9993, "FID": 6234, "CalcLocati": "46.99928600,-122.91916400", "CalcLoca_1": -122.919164, "CalcLoca_2": 46.999286, "Name": "DaVitaTumwater Dialysis", "Address": "855 TROSPER RD SW STE 110", "City": "TUMWATER", "State": "WA", "Zip": 98512, "formated_p": "Please call patient admission line", "Status": "open", "Icon": "small_green", "Type_": "Dialysis Center", "ObjectId": 6332 }, "geometry": { "type": "Point", "coordinates": [ -122.9192, 46.9993 ] } },
{ "type": "Feature", "properties": { "X": -122.4046, "Y": 47.1546, "FID": 6237, "CalcLocati": "47.15455600,-122.40458800", "CalcLoca_1": -122.404588, "CalcLoca_2": 47.154556, "Name": "DaVita Rainier View Dialysis", "Address": "1822 112TH ST EAST SUITE A", "City": "TACOMA", "State": "WA", "Zip": 98445, "formated_p": "Please call patient admission line", "Status": "open", "Icon": "small_green", "Type_": "Dialysis Center", "ObjectId": 6423 }, "geometry": { "type": "Point", "coordinates": [ -122.4046, 47.1546 ] } },
{ "type": "Feature", "properties": { "X": -122.6288, "Y": 47.5843, "FID": 6240, "CalcLocati": "47.58434900,-122.62876100", "CalcLoca_1": -122.628761, "CalcLoca_2": 47.584349, "Name": "OLYMPIC PENINSULA KIDNEY CENTER COORDINATED CARE UNIT", "Address": "2740 CLARE AVE", "City": "BREMERTON", "State": "WA", "Zip": 98310, "formated_p": "Please call patient admission line", "Status": "open", "Icon": "small_green", "Type_": "Dialysis Center", "ObjectId": 6435 }, "geometry": { "type": "Point", "coordinates": [ -122.6288, 47.5843 ] } },
{ "type": "Feature", "properties": { "X": -122.3344, "Y": 48.4606, "FID": 6244, "CalcLocati": "48.46064700,-122.33442700", "CalcLoca_1": -122.334427, "CalcLoca_2": 48.460647, "Name": "DaVita Cascade Dialysis", "Address": "145 CASCADE PLACE STE 100", "City": "BURLINGTON", "State": "WA", "Zip": 98233, "formated_p": "Please call patient admission line", "Status": "open", "Icon": "small_green", "Type_": "Dialysis Center", "ObjectId": 6557 }, "geometry": { "type": "Point", "coordinates": [ -122.3344, 48.4606 ] } },
{ "type": "Feature", "properties": { "X": -122.8227, "Y": 47.454, "FID": 6246, "CalcLocati": "47.45400800,-122.82269300", "CalcLoca_1": -122.822693, "CalcLoca_2": 47.454008, "Name": "DaVita Belfair Dialysis", "Address": "23961 NE STATE ROUTE 3", "City": "BELFAIR", "State": "WA", "Zip": 98528, "formated_p": "Please call patient admission line", "Status": "open", "Icon": "small_green", "Type_": "Dialysis Center", "ObjectId": 6570 }, "geometry": { "type": "Point", "coordinates": [ -122.8227, 47.454 ] } },
{ "type": "Feature", "properties": { "X": -122.545, "Y": 45.7816, "FID": 6249, "CalcLocati": "45.78160700,-122.54502100", "CalcLoca_1": -122.545021, "CalcLoca_2": 45.781607, "Name": "DaVita Battle Ground Dialysis", "Address": "720 W MAIN ST STE 112", "City": "BATTLE GROUND", "State": "WA", "Zip": 98604, "formated_p": "Please call patient admission line", "Status": "open", "Icon": "small_green", "Type_": "Dialysis Center", "ObjectId": 6585 }, "geometry": { "type": "Point", "coordinates": [ -122.545, 45.7816 ] } },
{ "type": "Feature", "properties": { "X": -122.3092, "Y": 47.3567, "FID": 6252, "CalcLocati": "47.35670300,-122.30920100", "CalcLoca_1": -122.309201, "CalcLoca_2": 47.356703, "Name": "DaVita Redondo Heights Dialysis", "Address": "27320 PACIFIC HWY S", "City": "FEDERAL WAY", "State": "WA", "Zip": 98003, "formated_p": "Please call patient admission line", "Status": "open", "Icon": "small_green", "Type_": "Dialysis Center", "ObjectId": 6603 }, "geometry": { "type": "Point", "coordinates": [ -122.3092, 47.3567 ] } },
{ "type": "Feature", "properties": { "X": -122.1633, "Y": 47.4897, "FID": 6255, "CalcLocati": "47.48972800,-122.16328200", "CalcLoca_1": -122.163282, "CalcLoca_2": 47.489728, "Name": "DaVita Renton Dialysis", "Address": "4110 NE 4TH ST STE E", "City": "RENTON", "State": "WA", "Zip": 98059, "formated_p": "Please call patient admission line", "Status": "open", "Icon": "small_green", "Type_": "Dialysis Center", "ObjectId": 6629 }, "geometry": { "type": "Point", "coordinates": [ -122.1633, 47.4897 ] } },
{ "type": "Feature", "properties": { "X": -122.3016, "Y": 47.1606, "FID": 6258, "CalcLocati": "47.16060100,-122.30163700", "CalcLoca_1": -122.301637, "CalcLoca_2": 47.160601, "Name": "RENAL CARE GROUP NORTHWEST, INC.", "Address": "702 SOUTH HILL PARK DR", "City": "PUYALLUP", "State": "WA", "Zip": 98373, "formated_p": "Please call patient admission line", "Status": "open", "Icon": "small_green", "Type_": "Dialysis Center", "ObjectId": 6650 }, "geometry": { "type": "Point", "coordinates": [ -122.3016, 47.1606 ] } },
{ "type": "Feature", "properties": { "X": -122.5794, "Y": 47.301, "FID": 6262, "CalcLocati": "47.30099000,-122.57939500", "CalcLoca_1": -122.579395, "CalcLoca_2": 47.30099, "Name": "RENAL CARE GROUP NORTHWEST, INC.", "Address": "4700 POINT FOSDICK DR NW STE 101", "City": "GIG HARBOR", "State": "WA", "Zip": 98335, "formated_p": "Please call patient admission line", "Status": "open", "Icon": "small_green", "Type_": "Dialysis Center", "ObjectId": 6676 }, "geometry": { "type": "Point", "coordinates": [ -122.5794, 47.301 ] } },
{ "type": "Feature", "properties": { "X": -122.4084, "Y": 47.1931, "FID": 6264, "CalcLocati": "47.19311200,-122.40844400", "CalcLoca_1": -122.408444, "CalcLoca_2": 47.193112, "Name": "RENAL CARE GROUP NORTHWEST, INC.", "Address": "1415 E 72ND ST", "City": "TACOMA", "State": "WA", "Zip": 98404, "formated_p": "Please call patient admission line", "Status": "open", "Icon": "small_green", "Type_": "Dialysis Center", "ObjectId": 6689 }, "geometry": { "type": "Point", "coordinates": [ -122.4084, 47.1931 ] } },
{ "type": "Feature", "properties": { "X": -122.4622, "Y": 47.2038, "FID": 6269, "CalcLocati": "47.20377300,-122.46224100", "CalcLoca_1": -122.462241, "CalcLoca_2": 47.203773, "Name": "RENAL CARE GROUP NORTHWEST, INC.", "Address": "5825 TACOMA MALL BLVD STE 103", "City": "TACOMA", "State": "WA", "Zip": 98409, "formated_p": "Please call patient admission line", "Status": "open", "Icon": "small_green", "Type_": "Dialysis Center", "ObjectId": 6768 }, "geometry": { "type": "Point", "coordinates": [ -122.4622, 47.2038 ] } },
{ "type": "Feature", "properties": { "X": -122.4478, "Y": 47.2454, "FID": 6272, "CalcLocati": "47.24542200,-122.44784900", "CalcLoca_1": -122.447849, "CalcLoca_2": 47.245422, "Name": "RENAL CARE GROUP NORTHWEST, INC.", "Address": "1717 SOUTH J STREET", "City": "TACOMA", "State": "WA", "Zip": 98405, "formated_p": "Please call patient admission line", "Status": "open", "Icon": "small_green", "Type_": "Dialysis Center", "ObjectId": 6777 }, "geometry": { "type": "Point", "coordinates": [ -122.4478, 47.2454 ] } },
{ "type": "Feature", "properties": { "X": -122.9839, "Y": 46.7139, "FID": 6275, "CalcLocati": "46.71387600,-122.98389200", "CalcLoca_1": -122.983892, "CalcLoca_2": 46.713876, "Name": "DaVita Cooks Hill Dialysis", "Address": "1815 Cooks Hill Rd Suite A", "City": "CENTRALIA", "State": "WA", "Zip": 98531, "formated_p": "Please call patient admission line", "Status": "open", "Icon": "small_green", "Type_": "Dialysis Center", "ObjectId": 6796 }, "geometry": { "type": "Point", "coordinates": [ -122.9839, 46.7139 ] } },
{ "type": "Feature", "properties": { "X": -122.2889, "Y": 47.2983, "FID": 6278, "CalcLocati": "47.29833700,-122.28887100", "CalcLoca_1": -122.288871, "CalcLoca_2": 47.298337, "Name": "NKC FEDERAL WAY EAST KIDNEY CENTER", "Address": "33820 WEYERHAEUSER WAY S STE 100", "City": "FEDERAL WAY", "State": "WA", "Zip": 98001, "formated_p": "Please call patient admission line", "Status": "open", "Icon": "small_green", "Type_": "Dialysis Center", "ObjectId": 6810 }, "geometry": { "type": "Point", "coordinates": [ -122.2889, 47.2983 ] } },
{ "type": "Feature", "properties": { "X": -122.3278, "Y": 47.299, "FID": 6281, "CalcLocati": "47.29903200,-122.32775600", "CalcLoca_1": -122.327756, "CalcLoca_2": 47.299032, "Name": "NKC FEDERAL WAY WEST CAMPUS", "Address": "501 South 336th St., Suite 110", "City": "FEDERAL WAY", "State": "WA", "Zip": 98003, "formated_p": "Please call patient admission line", "Status": "open", "Icon": "small_green", "Type_": "Dialysis Center", "ObjectId": 6826 }, "geometry": { "type": "Point", "coordinates": [ -122.3278, 47.299 ] } },
{ "type": "Feature", "properties": { "X": -120.4249, "Y": 46.4489, "FID": 6283, "CalcLocati": "46.44887900,-120.42488400", "CalcLoca_1": -120.424884, "CalcLoca_2": 46.448879, "Name": "DaVita Wapato Dialysis", "Address": "502 West 1st Street", "City": "WAPATO", "State": "WA", "Zip": 98951, "formated_p": "Please call patient admission line", "Status": "open", "Icon": "small_green", "Type_": "Dialysis Center", "ObjectId": 6837 }, "geometry": { "type": "Point", "coordinates": [ -120.4249, 46.4489 ] } },
{ "type": "Feature", "properties": { "X": -122.3481, "Y": 47.2469, "FID": 6287, "CalcLocati": "47.24685200,-122.34808000", "CalcLoca_1": -122.34808, "CalcLoca_2": 47.246852, "Name": "NKC FIFE KIDNEY CENTER", "Address": "6021 12TH STREET E, SUITE 110", "City": "FIFE", "State": "WA", "Zip": 98424, "formated_p": "Please call patient admission line", "Status": "open", "Icon": "small_green", "Type_": "Dialysis Center", "ObjectId": 6858 }, "geometry": { "type": "Point", "coordinates": [ -122.3481, 47.2469 ] } },
{ "type": "Feature", "properties": { "X": -122.9244, "Y": 46.1369, "FID": 6290, "CalcLocati": "46.13694600,-122.92443400", "CalcLoca_1": -122.924434, "CalcLoca_2": 46.136946, "Name": "Fresenius Kidney Care Longview, LLC", "Address": "600 Broadway St", "City": "Longview", "State": "WA", "Zip": 98632, "formated_p": "Please call patient admission line", "Status": "open", "Icon": "small_green", "Type_": "Dialysis Center", "ObjectId": 6873 }, "geometry": { "type": "Point", "coordinates": [ -122.9244, 46.1369 ] } },
{ "type": "Feature", "properties": { "X": -122.1711, "Y": 47.17, "FID": 6293, "CalcLocati": "47.16995700,-122.17109300", "CalcLoca_1": -122.171093, "CalcLoca_2": 47.169957, "Name": "CHI FRANCISCAN", "Address": "19520 State Hwy 410 E., Suite 19663", "City": "Bonney Lake", "State": "WA", "Zip": 98391, "formated_p": "Please call patient admission line", "Status": "open", "Icon": "small_green", "Type_": "Dialysis Center", "ObjectId": 6893 }, "geometry": { "type": "Point", "coordinates": [ -122.1711, 47.17 ] } },
{ "type": "Feature", "properties": { "X": -122.941, "Y": 48.7004, "FID": 6296, "CalcLocati": "48.70036900,-122.94096700", "CalcLoca_1": -122.940967, "CalcLoca_2": 48.700369, "Name": "CAMP ORKILA", "Address": "484 CAMP ORKILA RD", "City": "EASTSOUND", "State": "WA", "Zip": 98245, "formated_p": "Please call patient admission line", "Status": "open", "Icon": "small_green", "Type_": "Dialysis Center", "ObjectId": 6906 }, "geometry": { "type": "Point", "coordinates": [ -122.941, 48.7004 ] } },
{ "type": "Feature", "properties": { "X": -122.168, "Y": 47.1686, "FID": 7224, "CalcLocati": "47.16856200,-122.16799900", "CalcLoca_1": -122.167999, "CalcLoca_2": 47.168562, "Name": "Fresenius Kidney Care Bonney Lake", "Address": "19663 State Route 410 E", "City": "Bonney Lake", "State": "WA", "Zip": 98391, "formated_p": "Please call patient admission line", "Status": "open", "Icon": "small_green", "Type_": "Dialysis Center", "ObjectId": 7118 }, "geometry": { "type": "Point", "coordinates": [ -122.168, 47.1686 ] } },
{ "type": "Feature", "properties": { "X": -121.5231, "Y": 45.7038, "FID": 7367, "CalcLocati": "45.70378800,-121.52314400", "CalcLoca_1": -121.523144, "CalcLoca_2": 45.703788, "Name": "RAY YASUI DIALYSIS CENTER", "Address": "1125 MAY ST, SUITE 302", "City": "HOOD RIVER", "State": "OR", "Zip": 97031, "formated_p": "Please call patient admission line", "Status": "open", "Icon": "small_green", "Type_": "Dialysis Center", "ObjectId": 7156 }, "geometry": { "type": "Point", "coordinates": [ -121.5231, 45.7038 ] } },
{ "type": "Feature", "properties": { "X": -122.6853, "Y": 45.5011, "FID": 7370, "CalcLocati": "45.50111800,-122.68526200", "CalcLoca_1": -122.685262, "CalcLoca_2": 45.501118, "Name": "PEDIATRIC PERITONEAL DIALYSIS", "Address": "3181 SW SAM JACKSON PARK RD", "City": "PORTLAND", "State": "OR", "Zip": 97239, "formated_p": "Please call patient admission line", "Status": "open", "Icon": "small_green", "Type_": "Dialysis Center", "ObjectId": 7159 }, "geometry": { "type": "Point", "coordinates": [ -122.6853, 45.5011 ] } },
{ "type": "Feature", "properties": { "X": -122.63, "Y": 45.5317, "FID": 7373, "CalcLocati": "45.53171500,-122.63003100", "CalcLoca_1": -122.630031, "CalcLoca_2": 45.531715, "Name": "OREGON KIDNEY CENTER", "Address": "3524 NE SANDY BLVD", "City": "PORTLAND", "State": "OR", "Zip": 97232, "formated_p": "Please call patient admission line", "Status": "open", "Icon": "small_green", "Type_": "Dialysis Center", "ObjectId": 7162 }, "geometry": { "type": "Point", "coordinates": [ -122.63, 45.5317 ] } },
{ "type": "Feature", "properties": { "X": -122.5542, "Y": 45.5193, "FID": 7392, "CalcLocati": "45.51929100,-122.55422900", "CalcLoca_1": -122.554229, "CalcLoca_2": 45.519291, "Name": "PORTLAND DIALYSIS CENTER", "Address": "10595 SE STARK ST", "City": "PORTLAND", "State": "OR", "Zip": 97216, "formated_p": "Please call patient admission line", "Status": "open", "Icon": "small_green", "Type_": "Dialysis Center", "ObjectId": 7181 }, "geometry": { "type": "Point", "coordinates": [ -122.5542, 45.5193 ] } },
{ "type": "Feature", "properties": { "X": -122.6612, "Y": 45.5584, "FID": 7427, "CalcLocati": "45.55835300,-122.66116500", "CalcLoca_1": -122.661165, "CalcLoca_2": 45.558353, "Name": "ROSE CITY DIALYSIS, LLC", "Address": "4905 NE MARTIN LUTHER KING BLVD", "City": "PORTLAND", "State": "OR", "Zip": 97211, "formated_p": "Please call patient admission line", "Status": "open", "Icon": "small_green", "Type_": "Dialysis Center", "ObjectId": 7216 }, "geometry": { "type": "Point", "coordinates": [ -122.6612, 45.5584 ] } },
{ "type": "Feature", "properties": { "X": -122.8343, "Y": 45.5277, "FID": 7432, "CalcLocati": "45.52774900,-122.83429300", "CalcLoca_1": -122.834293, "CalcLoca_2": 45.527749, "Name": "PNRS TWIN OAKS", "Address": "15201 NW Greenbrier Parkway #C-2", "City": "BEAVERTON", "State": "OR", "Zip": 97006, "formated_p": "Please call patient admission line", "Status": "open", "Icon": "small_green", "Type_": "Dialysis Center", "ObjectId": 7221 }, "geometry": { "type": "Point", "coordinates": [ -122.8343, 45.5277 ] } },
{ "type": "Feature", "properties": { "X": -122.6369, "Y": 45.532, "FID": 7434, "CalcLocati": "45.53202200,-122.63686000", "CalcLoca_1": -122.63686, "CalcLoca_2": 45.532022, "Name": "PNRS HOLLYWOOD DIALYSIS", "Address": "2824 NE WASCO ST Suite #100", "City": "PORTLAND", "State": "OR", "Zip": 97232, "formated_p": "Please call patient admission line", "Status": "open", "Icon": "small_green", "Type_": "Dialysis Center", "ObjectId": 7223 }, "geometry": { "type": "Point", "coordinates": [ -122.6369, 45.532 ] } },
{ "type": "Feature", "properties": { "X": -123.8177, "Y": 46.1889, "FID": 7440, "CalcLocati": "46.18886000,-123.81773500", "CalcLoca_1": -123.817735, "CalcLoca_2": 46.18886, "Name": "PACIFIC NORTHWEST RENAL SERVICES, L.L.C.", "Address": "2120 EXCHANGE ST, STE 100", "City": "ASTORIA", "State": "OR", "Zip": 97103, "formated_p": "Please call patient admission line", "Status": "open", "Icon": "small_green", "Type_": "Dialysis Center", "ObjectId": 7229 }, "geometry": { "type": "Point", "coordinates": [ -123.8177, 46.1889 ] } },
{ "type": "Feature", "properties": { "X": -123.0906, "Y": 45.5187, "FID": 7441, "CalcLocati": "45.51872100,-123.09061600", "CalcLoca_1": -123.090616, "CalcLoca_2": 45.518721, "Name": "PNRS RAINES DIALYSIS", "Address": "3201 19th Avenue", "City": "Forest Grove", "State": "OR", "Zip": 97116, "formated_p": "Please call patient admission line", "Status": "open", "Icon": "small_green", "Type_": "Dialysis Center", "ObjectId": 7230 }, "geometry": { "type": "Point", "coordinates": [ -123.0906, 45.5187 ] } },
{ "type": "Feature", "properties": { "X": -122.6583, "Y": 45.5368, "FID": 7443, "CalcLocati": "45.53678000,-122.65827400", "CalcLoca_1": -122.658274, "CalcLoca_2": 45.53678, "Name": "NORTHEAST PORTLAND RENAL CENTER", "Address": "703 NE HANCOCK ST", "City": "PORTLAND", "State": "OR", "Zip": 97212, "formated_p": "Please call patient admission line", "Status": "open", "Icon": "small_green", "Type_": "Dialysis Center", "ObjectId": 7232 }, "geometry": { "type": "Point", "coordinates": [ -122.6583, 45.5368 ] } },
{ "type": "Feature", "properties": { "X": -122.4231, "Y": 45.5198, "FID": 7444, "CalcLocati": "45.51975800,-122.42309100", "CalcLoca_1": -122.423091, "CalcLoca_2": 45.519758, "Name": "FMC DIALYSIS MT HOOD", "Address": "23335 SE STARK ST", "City": "GRESHAM", "State": "OR", "Zip": 97030, "formated_p": "Please call patient admission line", "Status": "open", "Icon": "small_green", "Type_": "Dialysis Center", "ObjectId": 7233 }, "geometry": { "type": "Point", "coordinates": [ -122.4231, 45.5198 ] } },
{ "type": "Feature", "properties": { "X": -122.5525, "Y": 45.5186, "FID": 7447, "CalcLocati": "45.51862300,-122.55247800", "CalcLoca_1": -122.552478, "CalcLoca_2": 45.518623, "Name": "PORTLAND HOME DIALYSIS CLINIC", "Address": "10802 SE Washington Street", "City": "Portland", "State": "OR", "Zip": 97216, "formated_p": "Please call patient admission line", "Status": "open", "Icon": "small_green", "Type_": "Dialysis Center", "ObjectId": 7234 }, "geometry": { "type": "Point", "coordinates": [ -122.5525, 45.5186 ] } },
{ "type": "Feature", "properties": { "X": -122.909, "Y": 45.5459, "FID": 7449, "CalcLocati": "45.54594300,-122.90895500", "CalcLoca_1": -122.908955, "CalcLoca_2": 45.545943, "Name": "HILLSBORO DIALYSIS CENTER", "Address": "2500 NE Century Blvd., Suite 300 Bldg. E", "City": "HILLSBORO", "State": "OR", "Zip": 97124, "formated_p": "Please call patient admission line", "Status": "open", "Icon": "small_green", "Type_": "Dialysis Center", "ObjectId": 7241 }, "geometry": { "type": "Point", "coordinates": [ -122.909, 45.5459 ] } },
{ "type": "Feature", "properties": { "X": -122.1132, "Y": 47.0662, "FID": 7222, "CalcLocati": "47.06619300,-122.11322300", "CalcLoca_1": -122.113223, "CalcLoca_2": 47.066193, "Name": "MADIGAN HEALTHCARE SYSTEM DIALYSIS UNIT", "Address": "MCHJ-MNP 5 SOUTH", "City": "TACOMA", "State": "WA", "Zip": 98431, "formated_p": "Please call patient admission line", "Status": "open", "Icon": "small_green", "Type_": "Dialysis Center", "ObjectId": 7349 }, "geometry": { "type": "Point", "coordinates": [ -122.1132, 47.0662 ] } },
{ "type": "Feature", "properties": { "X": -122.8194, "Y": 45.861, "FID": 7451, "CalcLocati": "45.86103900,-122.81935600", "CalcLoca_1": -122.819356, "CalcLoca_2": 45.861039, "Name": "PNRS ST HELENS DIALYSIS", "Address": "500 N COLUMBIA RIVER HWY STE 510", "City": "SAINT HELENS", "State": "OR", "Zip": 97051, "formated_p": "Please call patient admission line", "Status": "open", "Icon": "small_green", "Type_": "Dialysis Center", "ObjectId": 7361 }, "geometry": { "type": "Point", "coordinates": [ -122.8194, 45.861 ] } },
{ "type": "Feature", "properties": { "X": -122.4998, "Y": 47.1489, "FID": 7231, "CalcLocati": "47.14891500,-122.49975600", "CalcLoca_1": -122.499756, "CalcLoca_2": 47.148915, "Name": "Puget Sound Kidney Center Lakewood", "Address": "11950 47th Ave SW", "City": "Lakewood", "State": "WA", "Zip": 98499, "formated_p": "Please call patient admission line", "Status": "open", "Icon": "small_green", "Type_": "Dialysis Center", "ObjectId": 7366 }, "geometry": { "type": "Point", "coordinates": [ -122.4998, 47.1489 ] } },
{ "type": "Feature", "properties": { "X": -122.6857, "Y": 45.4988, "FID": 7234, "CalcLocati": "45.49881100,-122.68565400", "CalcLoca_1": -122.685654, "CalcLoca_2": 45.498811, "Name": "VA PORTLAND", "Address": "3710 SW U.S. VETERANS HOSPITAL RD", "City": "PORTLAND", "State": "OR", "Zip": 97239, "formated_p": "Please call patient admission line", "Status": "open", "Icon": "small_green", "Type_": "Dialysis Center", "ObjectId": 7378 }, "geometry": { "type": "Point", "coordinates": [ -122.6857, 45.4988 ] } },
{ "type": "Feature", "properties": { "X": -122.8482, "Y": 45.532, "FID": 7455, "CalcLocati": "45.53197200,-122.84819300", "CalcLoca_1": -122.848193, "CalcLoca_2": 45.531972, "Name": "CORNELL ROAD DIALYSIS", "Address": "1700 NW 167TH PL STE 230", "City": "BEAVERTON", "State": "OR", "Zip": 97006, "formated_p": "Please call patient admission line", "Status": "open", "Icon": "small_green", "Type_": "Dialysis Center", "ObjectId": 7379 }, "geometry": { "type": "Point", "coordinates": [ -122.8482, 45.532 ] } },
{ "type": "Feature", "properties": { "X": -122.5392, "Y": 45.5695, "FID": 7456, "CalcLocati": "45.56945000,-122.53922300", "CalcLoca_1": -122.539223, "CalcLoca_2": 45.56945, "Name": "FMC MAYWOOD PARK", "Address": "11909 NE GLENN WIDING DR", "City": "PORTLAND", "State": "OR", "Zip": 97220, "formated_p": "Please call patient admission line", "Status": "open", "Icon": "small_green", "Type_": "Dialysis Center", "ObjectId": 7384 }, "geometry": { "type": "Point", "coordinates": [ -122.5392, 45.5695 ] } },
{ "type": "Feature", "properties": { "X": -118.3818, "Y": 45.9238, "FID": 7457, "CalcLocati": "45.92380300,-118.38183800", "CalcLoca_1": -118.381838, "CalcLoca_2": 45.923803, "Name": "FMC MILTON FREEWATER", "Address": "1213 S MAIN ST", "City": "MILTON FREEWATER", "State": "OR", "Zip": 97862, "formated_p": "Please call patient admission line", "Status": "open", "Icon": "small_green", "Type_": "Dialysis Center", "ObjectId": 7388 }, "geometry": { "type": "Point", "coordinates": [ -118.3818, 45.9238 ] } },
{ "type": "Feature", "properties": { "X": -122.3084, "Y": 47.5624, "FID": 7237, "CalcLocati": "47.56243200,-122.30838600", "CalcLoca_1": -122.308386, "CalcLoca_2": 47.562432, "Name": "VA PUGET SOUND", "Address": "1660 S COLUMBIAN WAY M/S S - 111 RDU", "City": "SEATTLE", "State": "WA", "Zip": 98108, "formated_p": "Please call patient admission line", "Status": "open", "Icon": "small_green", "Type_": "Dialysis Center", "ObjectId": 7389 }, "geometry": { "type": "Point", "coordinates": [ -122.3084, 47.5624 ] } },
{ "type": "Feature", "properties": { "X": -121.1397, "Y": 45.6051, "FID": 7459, "CalcLocati": "45.60513600,-121.13972500", "CalcLoca_1": -121.139725, "CalcLoca_2": 45.605136, "Name": "PNRS COLUMBIA RIVER THE DALLES", "Address": "411 LONE PINE BLVD", "City": "THE DALLES", "State": "OR", "Zip": 97058, "formated_p": "Please call patient admission line", "Status": "open", "Icon": "small_green", "Type_": "Dialysis Center", "ObjectId": 7396 }, "geometry": { "type": "Point", "coordinates": [ -121.1397, 45.6051 ] } },
{ "type": "Feature", "properties": { "X": -122.2775, "Y": 47.524, "FID": 7240, "CalcLocati": "47.52402100,-122.27750600", "CalcLoca_1": -122.277506, "CalcLoca_2": 47.524021, "Name": "Rainier Beach Kidney Center", "Address": "4401 S. Trenton St", "City": "Seattle", "State": "WA", "Zip": 98118, "formated_p": "Please call patient admission line", "Status": "open", "Icon": "small_green", "Type_": "Dialysis Center", "ObjectId": 7487 }, "geometry": { "type": "Point", "coordinates": [ -122.2775, 47.524 ] } },
{ "type": "Feature", "properties": { "X": -122.9278, "Y": 45.5204, "FID": 7492, "CalcLocati": "45.52037400,-122.92784800", "CalcLoca_1": -122.927848, "CalcLoca_2": 45.520374, "Name": "FRESENIUS MEDICAL CARE NOBLE WOODS, LLC", "Address": "5333 W BASELINE RD", "City": "HILLSBORO", "State": "OR", "Zip": 97123, "formated_p": "Please call patient admission line", "Status": "open", "Icon": "small_green", "Type_": "Dialysis Center", "ObjectId": 7569 }, "geometry": { "type": "Point", "coordinates": [ -122.9278, 45.5204 ] } },
{ "type": "Feature", "properties": { "X": -122.5616, "Y": 45.5324, "FID": 7496, "CalcLocati": "45.53244700,-122.56161300", "CalcLoca_1": -122.561613, "CalcLoca_2": 45.532447, "Name": "DaVita Portland Gateway Dialysis", "Address": "9932 NE HALSEY ST", "City": "PORTLAND", "State": "OR", "Zip": 97220, "formated_p": "Please call patient admission line", "Status": "open", "Icon": "small_green", "Type_": "Dialysis Center", "ObjectId": 7578 }, "geometry": { "type": "Point", "coordinates": [ -122.5616, 45.5324 ] } },
{ "type": "Feature", "properties": { "X": -122.6621, "Y": 45.5426, "FID": 7497, "CalcLocati": "45.54256900,-122.66207100", "CalcLoca_1": -122.662071, "CalcLoca_2": 45.542569, "Name": "DaVita Portland MLK Dialysis", "Address": "2737 NE MARTIN LUTHER KING JR BLVD", "City": "PORTLAND", "State": "OR", "Zip": 97212, "formated_p": "Please call patient admission line", "Status": "open", "Icon": "small_green", "Type_": "Dialysis Center", "ObjectId": 7580 }, "geometry": { "type": "Point", "coordinates": [ -122.6621, 45.5426 ] } },
{ "type": "Feature", "properties": { "X": -116.9288, "Y": 47.7151, "FID": 7278, "CalcLocati": "47.71508100,-116.92881400", "CalcLoca_1": -116.928814, "CalcLoca_2": 47.715081, "Name": "FMC POST FALLS DIALYSIS UNIT", "Address": "1300 E MULLAN SUITE 1200", "City": "POST FALLS", "State": "ID", "Zip": 83854, "formated_p": "Please call patient admission line", "Status": "open", "Icon": "small_green", "Type_": "Dialysis Center", "ObjectId": 7656 }, "geometry": { "type": "Point", "coordinates": [ -116.9288, 47.7151 ] } },
{ "type": "Feature", "properties": { "X": -117.0015, "Y": 46.7289, "FID": 7304, "CalcLocati": "46.72889600,-117.00153500", "CalcLoca_1": -117.001535, "CalcLoca_2": 46.728896, "Name": "FMC PALOUSE", "Address": "723 S MAIN ST", "City": "MOSCOW", "State": "ID", "Zip": 83843, "formated_p": "Please call patient admission line", "Status": "open", "Icon": "small_green", "Type_": "Dialysis Center", "ObjectId": 7728 }, "geometry": { "type": "Point", "coordinates": [ -117.0015, 46.7289 ] } },
{ "type": "Feature", "properties": { "X": -116.9999, "Y": 46.7448, "FID": 7306, "CalcLocati": "46.74478000,-116.99985700", "CalcLoca_1": -116.999857, "CalcLoca_2": 46.74478, "Name": "MOSCOW DIALYSIS CENTER", "Address": "212 RODEO DR STE 110", "City": "MOSCOW", "State": "ID", "Zip": 83843, "formated_p": "Please call patient admission line", "Status": "open", "Icon": "small_green", "Type_": "Dialysis Center", "ObjectId": 7730 }, "geometry": { "type": "Point", "coordinates": [ -116.9999, 46.7448 ] } },
{ "type": "Feature", "properties": { "X": -116.7952, "Y": 47.7387, "FID": 7315, "CalcLocati": "47.73868700,-116.79523200", "CalcLoca_1": -116.795232, "CalcLoca_2": 47.738687, "Name": "FMC HAYDEN LAKE", "Address": "7600 MINERAL DR STE 850", "City": "COEUR D'ALENE", "State": "ID", "Zip": 83815, "formated_p": "Please call patient admission line", "Status": "open", "Icon": "small_green", "Type_": "Dialysis Center", "ObjectId": 7739 }, "geometry": { "type": "Point", "coordinates": [ -116.7952, 47.7387 ] } },
{ "type": "Feature", "properties": { "X": -116.8921, "Y": 47.7171, "FID": 7321, "CalcLocati": "47.71707900,-116.89210700", "CalcLoca_1": -116.892107, "CalcLoca_2": 47.717079, "Name": "DSI POST FALLS DIALYSIS", "Address": "920 NORTH HIGHWAY 41 STE 3", "City": "POST FALLS", "State": "ID", "Zip": 83854, "formated_p": "Please call patient admission line", "Status": "open", "Icon": "small_green", "Type_": "Dialysis Center", "ObjectId": 7745 }, "geometry": { "type": "Point", "coordinates": [ -116.8921, 47.7171 ] } },
{ "type": "Feature", "properties": { "X": -117.001, "Y": 46.4079, "FID": 7323, "CalcLocati": "46.40792300,-117.00104600", "CalcLoca_1": -117.001046, "CalcLoca_2": 46.407923, "Name": "LEWIS-CLARK KIDNEY CENTER, LLC", "Address": "2116 12TH AVE", "City": "LEWISTON", "State": "ID", "Zip": 83501, "formated_p": "Please call patient admission line", "Status": "open", "Icon": "small_green", "Type_": "Dialysis Center", "ObjectId": 7747 }, "geometry": { "type": "Point", "coordinates": [ -117.001, 46.4079 ] } }
]
}
